[
    {
        "id": 44560,
        "name": "Театр «Школа современной пьесы» на Неглинной",
        "category": "театр",
        "latitude": 55.766947,
        "longitude": 37.620743
    },
    {
        "id": 22956,
        "name": "Библиотека №105 на Тихорецком бульваре",
        "category": "библиотека",
        "latitude": 55.6779666460434,
        "longitude": 37.7744619325402
    },
    {
        "id": 22873,
        "name": "Центральная детская библиотека №104",
        "category": "библиотека",
        "latitude": 55.713588,
        "longitude": 37.79004
    },
    {
        "id": 67215,
        "name": "Кинотеатр «Березка»",
        "category": "кинотеатр",
        "latitude": 55.749841,
        "longitude": 37.802562
    },
    {
        "id": 92704,
        "name": "Кинотеатр «Вымпел»",
        "category": "кинотеатр",
        "latitude": 55.8619860672067,
        "longitude": 37.6766104232785
    },
    {
        "id": 82470,
        "name": "Кинотеатр «Звезда»",
        "category": "кинотеатр",
        "latitude": 55.7600099336379,
        "longitude": 37.6570512037045
    },
    {
        "id": 85521,
        "name": "Центральная библиотека №106 на Зарайской улице",
        "category": "библиотека",
        "latitude": 55.727192,
        "longitude": 37.774215
    },
    {
        "id": 21166,
        "name": "Кинотеатр «Искра»",
        "category": "кинотеатр",
        "latitude": 55.814406,
        "longitude": 37.57121
    },
    {
        "id": 38455,
        "name": "Кинотеатр «Космос»",
        "category": "кинотеатр",
        "latitude": 55.8187293635762,
        "longitude": 37.6368745595241
    },
    {
        "id": 80268,
        "name": "Центральная детская библиотека №14",
        "category": "библиотека",
        "latitude": 55.736501,
        "longitude": 37.634021
    },
    {
        "id": 4874,
        "name": "Кинотеатр «Молодежный»",
        "category": "кинотеатр",
        "latitude": 55.710864,
        "longitude": 37.731299
    },
    {
        "id": 39383,
        "name": "Кинотеатр «Полет»",
        "category": "кинотеатр",
        "latitude": 55.846112,
        "longitude": 37.442773
    },
    {
        "id": 9404,
        "name": "Кинотеатр «Салют»",
        "category": "кинотеатр",
        "latitude": 55.682818,
        "longitude": 37.5713
    },
    {
        "id": 94878,
        "name": "Библиотека №129",
        "category": "библиотека",
        "latitude": 55.6578608110175,
        "longitude": 37.7476813617623
    },
    {
        "id": 75297,
        "name": "Библиотека №135 на улице Перерва",
        "category": "библиотека",
        "latitude": 55.6516228304904,
        "longitude": 37.730810492065
    },
    {
        "id": 434,
        "name": "Московский театр «Тень»",
        "category": "театр",
        "latitude": 55.785549,
        "longitude": 37.613575
    },
    {
        "id": 47153,
        "name": "Дом Н.В. Гоголя",
        "category": "музей",
        "latitude": 55.7541636134829,
        "longitude": 37.5998777116392
    },
    {
        "id": 75298,
        "name": "Центр Славы Полунина",
        "category": "театр",
        "latitude": 55.74938,
        "longitude": 37.591701
    },
    {
        "id": 66510,
        "name": "Библиотека №135 на улице Донецкой",
        "category": "библиотека",
        "latitude": 55.647839,
        "longitude": 37.715255
    },
    {
        "id": 48515,
        "name": "Библиотека №135 на улице Донецкая",
        "category": "библиотека",
        "latitude": 55.6445776621698,
        "longitude": 37.7117101018522
    },
    {
        "id": 65198,
        "name": "Кинотеатр «Сатурн»",
        "category": "кинотеатр",
        "latitude": 55.8520294931833,
        "longitude": 37.6475168134917
    },
    {
        "id": 24463,
        "name": "Московский Новый драматический театр",
        "category": "театр",
        "latitude": 55.87387,
        "longitude": 37.720726
    },
    {
        "id": 92933,
        "name": "Кинотеатр «Спутник»",
        "category": "кинотеатр",
        "latitude": 55.7643544155712,
        "longitude": 37.7054650846556
    },
    {
        "id": 15826,
        "name": "Дом А.Ф. Лосева на Арбате",
        "category": "библиотека",
        "latitude": 55.7495283598443,
        "longitude": 37.5921745251309
    },
    {
        "id": 69011,
        "name": "Театр им. Станиславского и Немировича-Данченко",
        "category": "театр",
        "latitude": 55.764561,
        "longitude": 37.610512
    },
    {
        "id": 36235,
        "name": "Библиотека №134 в 5-м квартале Капотни",
        "category": "библиотека",
        "latitude": 55.6332651194447,
        "longitude": 37.8028774834668
    },
    {
        "id": 92162,
        "name": "Кинотеатр «Факел»",
        "category": "кинотеатр",
        "latitude": 55.751823050754,
        "longitude": 37.7160259828031
    },
    {
        "id": 51373,
        "name": "Кинотеатр «Юность»",
        "category": "кинотеатр",
        "latitude": 55.7953617356023,
        "longitude": 37.4954691865082
    },
    {
        "id": 66307,
        "name": "Библиотека №134 в 3-м квартале Капотни",
        "category": "библиотека",
        "latitude": 55.6358138947816,
        "longitude": 37.7953826097867
    },
    {
        "id": 46236,
        "name": "Библиотека №132 на улице Батюнинская",
        "category": "библиотека",
        "latitude": 55.6591101624067,
        "longitude": 37.7067023584738
    },
    {
        "id": 67938,
        "name": "Библиотека №132 на 1-й Курьяновской улице",
        "category": "библиотека",
        "latitude": 55.654117,
        "longitude": 37.70293
    },
    {
        "id": 92072,
        "name": "Библиотека №9 имени Н.В. Гоголя",
        "category": "библиотека",
        "latitude": 55.7714176642383,
        "longitude": 37.5814280932537
    },
    {
        "id": 11774,
        "name": "Библиотека №132 на Шоссейной улице",
        "category": "библиотека",
        "latitude": 55.6794770248679,
        "longitude": 37.721868728836
    },
    {
        "id": 64837,
        "name": "Библиотека №8 имени А.П. Чехова",
        "category": "библиотека",
        "latitude": 55.7657,
        "longitude": 37.609194
    },
    {
        "id": 59604,
        "name": "Библиотека №131",
        "category": "библиотека",
        "latitude": 55.6545374751716,
        "longitude": 37.763609982803
    },
    {
        "id": 53632,
        "name": "Библиотека №130",
        "category": "библиотека",
        "latitude": 55.6773393425706,
        "longitude": 37.7516920873103
    },
    {
        "id": 29146,
        "name": "Библиотека № 8 имени А.П. Чехова",
        "category": "библиотека",
        "latitude": 55.76603,
        "longitude": 37.609135
    },
    {
        "id": 62603,
        "name": "Московский драматический театр «Сфера»",
        "category": "театр",
        "latitude": 55.770234,
        "longitude": 37.608824
    },
    {
        "id": 51096,
        "name": "Библиотека №127 на улице Чистова",
        "category": "библиотека",
        "latitude": 55.6974598092453,
        "longitude": 37.7436983703608
    },
    {
        "id": 11554,
        "name": "Театр на Малой Бронной",
        "category": "театр",
        "latitude": 55.7594294941738,
        "longitude": 37.5977961828723
    },
    {
        "id": 56258,
        "name": "Библиотека №125 на улице Сторожевая",
        "category": "библиотека",
        "latitude": 55.7656554868502,
        "longitude": 37.7111390330655
    },
    {
        "id": 78062,
        "name": "Библиотека №6 имени В.В. Вересаева",
        "category": "библиотека",
        "latitude": 55.7434159738086,
        "longitude": 37.5800467790983
    },
    {
        "id": 15863,
        "name": "Библиотека №124 на улице Велозаводская",
        "category": "библиотека",
        "latitude": 55.7113950009662,
        "longitude": 37.6664715152049
    },
    {
        "id": 11622,
        "name": "Московский детский театр теней",
        "category": "театр",
        "latitude": 55.796597,
        "longitude": 37.81363
    },
    {
        "id": 30935,
        "name": "Библиотека №5 имени М.А. Волошина",
        "category": "библиотека",
        "latitude": 55.7298371084526,
        "longitude": 37.557586504299
    },
    {
        "id": 52941,
        "name": "Библиотека №124 на улице Сайкина",
        "category": "библиотека",
        "latitude": 55.707395,
        "longitude": 37.668579
    },
    {
        "id": 47736,
        "name": "Центр Оперного Пения имени Галины Вишневской",
        "category": "театр",
        "latitude": 55.740233,
        "longitude": 37.597594
    },
    {
        "id": 84919,
        "name": "Библиотека №4 имени Е.А. Фурцевой",
        "category": "библиотека",
        "latitude": 55.718907,
        "longitude": 37.577107
    },
    {
        "id": 27224,
        "name": "Библиотека №123 на улице Верхняя Хохловка",
        "category": "библиотека",
        "latitude": 55.733355268258,
        "longitude": 37.7214430968889
    },
    {
        "id": 94249,
        "name": "Кинотеатр «Тула»",
        "category": "кинотеатр",
        "latitude": 55.6858851221895,
        "longitude": 37.7184374404754
    },
    {
        "id": 30663,
        "name": "Музей М.А. Булгакова",
        "category": "музей",
        "latitude": 55.7495357937675,
        "longitude": 37.5960229533723
    },
    {
        "id": 26134,
        "name": "Библиотека №3 имени Н.А. Добролюбова",
        "category": "библиотека",
        "latitude": 55.7495354622699,
        "longitude": 37.5821351693114
    },
    {
        "id": 94996,
        "name": "Библиотека №121 на улице Трофимова",
        "category": "библиотека",
        "latitude": 55.7032019525449,
        "longitude": 37.6720597569384
    },
    {
        "id": 75580,
        "name": "Библиотека №121 на улице Трофимова",
        "category": "библиотека",
        "latitude": 55.7028651459842,
        "longitude": 37.681275763229
    },
    {
        "id": 59188,
        "name": "Библиотека №121 на улице Петра Романова",
        "category": "библиотека",
        "latitude": 55.7086759986145,
        "longitude": 37.6804044613069
    },
    {
        "id": 38817,
        "name": "Библиотека №120",
        "category": "библиотека",
        "latitude": 55.767423,
        "longitude": 37.715668
    },
    {
        "id": 59767,
        "name": "Библиотека №119 на шоссе Энтузиастов",
        "category": "библиотека",
        "latitude": 55.7508051299959,
        "longitude": 37.7148928379588
    },
    {
        "id": 77815,
        "name": "Московский театр «Современник»",
        "category": "театр",
        "latitude": 55.761821,
        "longitude": 37.645968
    },
    {
        "id": 48557,
        "name": "Библиотека №119 на шоссе Энтузиастов",
        "category": "библиотека",
        "latitude": 55.7511170470911,
        "longitude": 37.7188525350556
    },
    {
        "id": 94737,
        "name": "Киноконцертный зал «Эльдар»",
        "category": "музей",
        "latitude": 55.665309,
        "longitude": 37.513395
    },
    {
        "id": 82648,
        "name": "Ведогонь-театр",
        "category": "театр",
        "latitude": 55.9975332124322,
        "longitude": 37.2272829067454
    },
    {
        "id": 24681,
        "name": "Библиотека №118 имени В.Н.Соколова.",
        "category": "библиотека",
        "latitude": 55.7610969998617,
        "longitude": 37.7027440443188
    },
    {
        "id": 76272,
        "name": "Библиотека №2 имени Ю.В. Трифонова",
        "category": "библиотека",
        "latitude": 55.774621,
        "longitude": 37.593809
    },
    {
        "id": 44686,
        "name": "Библиотека №117 на улице 2-я Вольская",
        "category": "библиотека",
        "latitude": 55.6862421600669,
        "longitude": 37.9218205019907
    },
    {
        "id": 48000,
        "name": "Библиотека №117 на улице Рождественская",
        "category": "библиотека",
        "latitude": 55.7025257071502,
        "longitude": 37.9169662833974
    },
    {
        "id": 29314,
        "name": "Библиотека №116 на улице Нижегородская",
        "category": "библиотека",
        "latitude": 55.7335942617083,
        "longitude": 37.7088117238727
    },
    {
        "id": 37242,
        "name": "Библиотека №115 на улице Федора Полетаева",
        "category": "библиотека",
        "latitude": 55.7086147561695,
        "longitude": 37.7830092195733
    },
    {
        "id": 36496,
        "name": "Библиотека №113 на улице Саратовская",
        "category": "библиотека",
        "latitude": 55.7139523271506,
        "longitude": 37.7312019669336
    },
    {
        "id": 56471,
        "name": "Московский детский камерный театр кукол",
        "category": "театр",
        "latitude": 55.835002,
        "longitude": 37.661545
    },
    {
        "id": 1926,
        "name": "Библиотека №18 имени В.А.Жуковского",
        "category": "библиотека",
        "latitude": 55.756921,
        "longitude": 37.653159
    },
    {
        "id": 73651,
        "name": "Библиотека №111 на Рязанском проспекте",
        "category": "библиотека",
        "latitude": 55.715327282596,
        "longitude": 37.8100275337296
    },
    {
        "id": 20466,
        "name": "Театр «Уголок дедушки Дурова»",
        "category": "театр",
        "latitude": 55.77953,
        "longitude": 37.62119
    },
    {
        "id": 17496,
        "name": "Русский духовный театр «ГЛАС»",
        "category": "театр",
        "latitude": 55.73898,
        "longitude": 37.634294
    },
    {
        "id": 26831,
        "name": "Библиотека №109 на Волгоградском проспекте",
        "category": "библиотека",
        "latitude": 55.693125,
        "longitude": 37.818714
    },
    {
        "id": 77126,
        "name": "Центр театра и кино на Поварской",
        "category": "театр",
        "latitude": 55.7569511512942,
        "longitude": 37.5862303558195
    },
    {
        "id": 95484,
        "name": "Библиотека №109 в Ферганском проезде",
        "category": "библиотека",
        "latitude": 55.6962175681051,
        "longitude": 37.8260028134912
    },
    {
        "id": 6466,
        "name": "Библиотека №108",
        "category": "библиотека",
        "latitude": 55.6980288891312,
        "longitude": 37.8442835178603
    },
    {
        "id": 64608,
        "name": "Библиотека №16",
        "category": "библиотека",
        "latitude": 55.7340486549973,
        "longitude": 37.6542177030407
    },
    {
        "id": 17089,
        "name": "Библиотека №107 на Перовском шоссе",
        "category": "библиотека",
        "latitude": 55.736133,
        "longitude": 37.751421
    },
    {
        "id": 16753,
        "name": "Московский театр «Театр Луны»",
        "category": "театр",
        "latitude": 55.733604,
        "longitude": 37.626043
    },
    {
        "id": 28408,
        "name": "Библиотека №13 имени Н.Г.Чернышевского",
        "category": "библиотека",
        "latitude": 55.7384051745584,
        "longitude": 37.6332766147492
    },
    {
        "id": 57935,
        "name": "Библиотека №107 в Орехово-Зуевском проезде",
        "category": "библиотека",
        "latitude": 55.73181,
        "longitude": 37.756955
    },
    {
        "id": 493,
        "name": "Библиотека №12 имени И.А. Бунина",
        "category": "библиотека",
        "latitude": 55.75855,
        "longitude": 37.55781
    },
    {
        "id": 99742,
        "name": "Библиотека №12 имени И.А. Бунина",
        "category": "библиотека",
        "latitude": 55.7592931552545,
        "longitude": 37.5646181104502
    },
    {
        "id": 26266,
        "name": "Библиотека №105 на улице Головачёва",
        "category": "библиотека",
        "latitude": 55.6753423806663,
        "longitude": 37.8054392625654
    },
    {
        "id": 7842,
        "name": "Библиотека №105 на улице Кубанская",
        "category": "библиотека",
        "latitude": 55.6838021534659,
        "longitude": 37.7442148650814
    },
    {
        "id": 51647,
        "name": "Кинотеатр «Художественный»",
        "category": "кинотеатр",
        "latitude": 55.752379,
        "longitude": 37.602032
    },
    {
        "id": 27086,
        "name": "Фольклорный центр «Москва»",
        "category": "театр",
        "latitude": 55.7413710469893,
        "longitude": 37.4996657876961
    },
    {
        "id": 4353,
        "name": "Библиотека №11 имени Д.В. Давыдова",
        "category": "библиотека",
        "latitude": 55.7537355559238,
        "longitude": 37.522735034393
    },
    {
        "id": 72390,
        "name": "Цыганский театр «Ромэн»",
        "category": "театр",
        "latitude": 55.7844111812073,
        "longitude": 37.569788797622
    },
    {
        "id": 24800,
        "name": "«МОСГОРТУР»",
        "category": "прочие учреждения культуры",
        "latitude": 55.7666979896182,
        "longitude": 37.6441671489738
    },
    {
        "id": 14054,
        "name": "Библиотека №10",
        "category": "библиотека",
        "latitude": 55.7581331221158,
        "longitude": 37.5425886269835
    },
    {
        "id": 35185,
        "name": "Театр Олега Табакова, сцена на Чистых прудах",
        "category": "театр",
        "latitude": 55.764197,
        "longitude": 37.646139
    },
    {
        "id": 95279,
        "name": "Театр Олега Табакова, сцена на Сухаревской",
        "category": "театр",
        "latitude": 55.773348,
        "longitude": 37.630894
    },
    {
        "id": 42289,
        "name": "Библиотека №1 имени А.С. Грибоедова",
        "category": "библиотека",
        "latitude": 55.7863539554708,
        "longitude": 37.6402464834665
    },
    {
        "id": 60689,
        "name": "Библиотека №167",
        "category": "библиотека",
        "latitude": 55.6397282194326,
        "longitude": 37.6944185214954
    },
    {
        "id": 59179,
        "name": "Библиотека киноискусства имени С.М. Эйзенштейна",
        "category": "библиотека",
        "latitude": 55.772815,
        "longitude": 37.608825
    },
    {
        "id": 290,
        "name": "Театр «Сопричастность»",
        "category": "театр",
        "latitude": 55.763837,
        "longitude": 37.672567
    },
    {
        "id": 43274,
        "name": "Библиотека №166 имени 1-го Мая",
        "category": "библиотека",
        "latitude": 55.7095562006888,
        "longitude": 37.5874263829416
    },
    {
        "id": 12397,
        "name": "Библиотека №165 на Нагатинской набережной",
        "category": "библиотека",
        "latitude": 55.681443,
        "longitude": 37.655499
    },
    {
        "id": 86920,
        "name": "Библиотека №165 на проспекте Андропова",
        "category": "библиотека",
        "latitude": 55.6831306183485,
        "longitude": 37.6671826527785
    },
    {
        "id": 1449,
        "name": "Библиотека искусств имени А.П. Боголюбова",
        "category": "библиотека",
        "latitude": 55.781362,
        "longitude": 37.602436
    },
    {
        "id": 60798,
        "name": "Библиотека №164 «Просвещение трудящихся»",
        "category": "библиотека",
        "latitude": 55.717543,
        "longitude": 37.608005
    },
    {
        "id": 39779,
        "name": "Московский дом книги на Новом Арбате",
        "category": "прочие учреждения культуры",
        "latitude": 55.753103,
        "longitude": 37.595348
    },
    {
        "id": 6069,
        "name": "Московский открытый студенческий театр МОСТ",
        "category": "театр",
        "latitude": 55.766212,
        "longitude": 37.591952
    },
    {
        "id": 86706,
        "name": "Симфонический оркестр «Русская филармония»",
        "category": "концертная организация",
        "latitude": 55.733249,
        "longitude": 37.646597
    },
    {
        "id": 28541,
        "name": "Библиотека №161",
        "category": "библиотека",
        "latitude": 55.692869011048,
        "longitude": 37.607468473725
    },
    {
        "id": 20966,
        "name": "Библиотека №160 на Булатниковском проезде",
        "category": "библиотека",
        "latitude": 55.595918,
        "longitude": 37.647747
    },
    {
        "id": 30125,
        "name": "Московский театр кукол",
        "category": "театр",
        "latitude": 55.772867,
        "longitude": 37.677957
    },
    {
        "id": 90480,
        "name": "Библиотека №159",
        "category": "библиотека",
        "latitude": 55.6799575809022,
        "longitude": 37.6394863435855
    },
    {
        "id": 49561,
        "name": "Дом книги в Бескудниково",
        "category": "прочие учреждения культуры",
        "latitude": 55.8713496765738,
        "longitude": 37.553639419643
    },
    {
        "id": 2148,
        "name": "Библиотека №157 на улице Россошанская",
        "category": "библиотека",
        "latitude": 55.596483,
        "longitude": 37.610592
    },
    {
        "id": 62136,
        "name": "Дом иностранной книги",
        "category": "прочие учреждения культуры",
        "latitude": 55.7619306404617,
        "longitude": 37.622825139881
    },
    {
        "id": 4929,
        "name": "Библиотека №157 на улице Газопровод",
        "category": "библиотека",
        "latitude": 55.589982,
        "longitude": 37.607341
    },
    {
        "id": 18660,
        "name": "Театр на Юго-Западе",
        "category": "театр",
        "latitude": 55.655478,
        "longitude": 37.4810496759181
    },
    {
        "id": 89056,
        "name": "Театр имени Моссовета",
        "category": "театр",
        "latitude": 55.7678703421502,
        "longitude": 37.5963699312132
    },
    {
        "id": 91411,
        "name": "Градский Холл",
        "category": "театр",
        "latitude": 55.7289544896384,
        "longitude": 37.6212018220901
    },
    {
        "id": 2618,
        "name": "Московский драматический театр им. А. С. Пушкина",
        "category": "театр",
        "latitude": 55.7622930491795,
        "longitude": 37.6017103902129
    },
    {
        "id": 19191,
        "name": "Театр «Школа драматического искусства»",
        "category": "театр",
        "latitude": 55.7701850959636,
        "longitude": 37.6315891018524
    },
    {
        "id": 24216,
        "name": "Библиотека №151 в микрорайоне Северное Чертаново",
        "category": "библиотека",
        "latitude": 55.639329,
        "longitude": 37.601034
    },
    {
        "id": 837,
        "name": "Библиотека №151 на улице Чертановская",
        "category": "библиотека",
        "latitude": 55.616554,
        "longitude": 37.598923
    },
    {
        "id": 27778,
        "name": "Библиотека №47",
        "category": "библиотека",
        "latitude": 55.872946,
        "longitude": 37.516883
    },
    {
        "id": 3109,
        "name": "Библиотека №151 на Сумском проезде",
        "category": "библиотека",
        "latitude": 55.631996,
        "longitude": 37.61061
    },
    {
        "id": 76521,
        "name": "Московский театр «Et Cetera»",
        "category": "театр",
        "latitude": 55.765063,
        "longitude": 37.635611
    },
    {
        "id": 24228,
        "name": "Библиотека №150 на улице Борисовские Пруды",
        "category": "библиотека",
        "latitude": 55.633597,
        "longitude": 37.74119
    },
    {
        "id": 46788,
        "name": "Библиотека №150 на улице Ключевая",
        "category": "библиотека",
        "latitude": 55.635426,
        "longitude": 37.757045
    },
    {
        "id": 78678,
        "name": "Дом педагогической книги",
        "category": "прочие учреждения культуры",
        "latitude": 55.760434,
        "longitude": 37.614419
    },
    {
        "id": 17231,
        "name": "Московский театр «Новая Опера»",
        "category": "театр",
        "latitude": 55.771585,
        "longitude": 37.609092
    },
    {
        "id": 73693,
        "name": "Библиотека №149",
        "category": "библиотека",
        "latitude": 55.603944,
        "longitude": 37.744136
    },
    {
        "id": 99236,
        "name": "Дом технической книги",
        "category": "прочие учреждения культуры",
        "latitude": 55.7033566267176,
        "longitude": 37.5709473240789
    },
    {
        "id": 6166,
        "name": "Дом книги в Измайлово",
        "category": "прочие учреждения культуры",
        "latitude": 55.792513,
        "longitude": 37.77705
    },
    {
        "id": 75452,
        "name": "Дом книги на Ленинском проспекте",
        "category": "прочие учреждения культуры",
        "latitude": 55.6769559379388,
        "longitude": 37.5277001190486
    },
    {
        "id": 67801,
        "name": "Дом книги в Коптево",
        "category": "прочие учреждения культуры",
        "latitude": 55.8243258458977,
        "longitude": 37.5226702969585
    },
    {
        "id": 70941,
        "name": "Московский музыкальный театр «Геликон-опера»",
        "category": "театр",
        "latitude": 55.7570175752299,
        "longitude": 37.6010261276467
    },
    {
        "id": 6675,
        "name": "Дом книги на Соколе",
        "category": "прочие учреждения культуры",
        "latitude": 55.80611187061,
        "longitude": 37.5130492367704
    },
    {
        "id": 66230,
        "name": "Дом книги на улице космонавта Волкова",
        "category": "прочие учреждения культуры",
        "latitude": 55.816252,
        "longitude": 37.518003
    },
    {
        "id": 63541,
        "name": "Московский академический театр сатиры",
        "category": "театр",
        "latitude": 55.7683002895507,
        "longitude": 37.5953108048932
    },
    {
        "id": 28923,
        "name": "Дом книги",
        "category": "прочие учреждения культуры",
        "latitude": 55.8182319992067,
        "longitude": 37.5010820416637
    },
    {
        "id": 63443,
        "name": "Дом книги на Преображенке",
        "category": "прочие учреждения культуры",
        "latitude": 55.792625,
        "longitude": 37.714366
    },
    {
        "id": 72196,
        "name": "Дом книги в Гольяново",
        "category": "прочие учреждения культуры",
        "latitude": 55.8174665480125,
        "longitude": 37.8006787962942
    },
    {
        "id": 54700,
        "name": "Библиотека №146",
        "category": "библиотека",
        "latitude": 55.614953,
        "longitude": 37.722657
    },
    {
        "id": 25993,
        "name": "Дом книги на Петрозаводской",
        "category": "прочие учреждения культуры",
        "latitude": 55.864505,
        "longitude": 37.499668
    },
    {
        "id": 5664,
        "name": "Библиотека №144",
        "category": "библиотека",
        "latitude": 55.615273,
        "longitude": 37.737785
    },
    {
        "id": 78159,
        "name": "Театр «Русская песня»",
        "category": "театр",
        "latitude": 55.7785132601583,
        "longitude": 37.6235091104493
    },
    {
        "id": 44460,
        "name": "Библиотека №143 на улице Чертановская",
        "category": "библиотека",
        "latitude": 55.608506,
        "longitude": 37.595492
    },
    {
        "id": 92825,
        "name": "Библиотека №143",
        "category": "библиотека",
        "latitude": 55.596869,
        "longitude": 37.593704
    },
    {
        "id": 23832,
        "name": "Библиотека №143 на улице Чертановская",
        "category": "библиотека",
        "latitude": 55.597754,
        "longitude": 37.583158
    },
    {
        "id": 14202,
        "name": "Театр «Центр драматургии и режиссуры» на Соколе",
        "category": "театр",
        "latitude": 55.8040695977313,
        "longitude": 37.5158444318765
    },
    {
        "id": 33864,
        "name": "Дом книги в Чертаново",
        "category": "прочие учреждения культуры",
        "latitude": 55.6295191946944,
        "longitude": 37.5981682883603
    },
    {
        "id": 40935,
        "name": "Библиотека №143 на улице Чертановская",
        "category": "библиотека",
        "latitude": 55.604442,
        "longitude": 37.586697
    },
    {
        "id": 17490,
        "name": "Библиотека №142",
        "category": "библиотека",
        "latitude": 55.575831,
        "longitude": 37.667797
    },
    {
        "id": 44731,
        "name": "Дом книги в Орехово",
        "category": "прочие учреждения культуры",
        "latitude": 55.618379,
        "longitude": 37.71177
    },
    {
        "id": 84270,
        "name": "Дом книги в Тушино",
        "category": "прочие учреждения культуры",
        "latitude": 55.848751,
        "longitude": 37.427947
    },
    {
        "id": 72132,
        "name": "Московский детский театр марионеток",
        "category": "театр",
        "latitude": 55.7346310168265,
        "longitude": 37.6705720502615
    },
    {
        "id": 79387,
        "name": "Дом книги на Рокоссовского",
        "category": "прочие учреждения культуры",
        "latitude": 55.813268,
        "longitude": 37.72325
    },
    {
        "id": 54647,
        "name": "Дом книги на Молдагуловой",
        "category": "прочие учреждения культуры",
        "latitude": 55.723901,
        "longitude": 37.820681
    },
    {
        "id": 47376,
        "name": "Библиотека №42 имени А.П. Платонова",
        "category": "библиотека",
        "latitude": 55.806737,
        "longitude": 37.524336
    },
    {
        "id": 45440,
        "name": "Библиотека №41 на улице Куусинена",
        "category": "библиотека",
        "latitude": 55.781625,
        "longitude": 37.517081
    },
    {
        "id": 57815,
        "name": "Библиотека №140 на улице Липецкая",
        "category": "библиотека",
        "latitude": 55.5785242225385,
        "longitude": 37.6833910821006
    },
    {
        "id": 78746,
        "name": "Библиотека №41 на Хорошевском шоссе",
        "category": "библиотека",
        "latitude": 55.7759885474115,
        "longitude": 37.5315830294298
    },
    {
        "id": 81767,
        "name": "Библиотека №140 на улица Лебедянская",
        "category": "библиотека",
        "latitude": 55.583963,
        "longitude": 37.685952
    },
    {
        "id": 55695,
        "name": "Библиотека №139",
        "category": "библиотека",
        "latitude": 55.626014,
        "longitude": 37.675172
    },
    {
        "id": 53445,
        "name": "Театр на Таганке",
        "category": "театр",
        "latitude": 55.7428602582404,
        "longitude": 37.6538318134912
    },
    {
        "id": 4475,
        "name": "Библиотека №137",
        "category": "библиотека",
        "latitude": 55.598421,
        "longitude": 37.670492
    },
    {
        "id": 61120,
        "name": "Московский Театр Юного Зрителя, Основная сцена",
        "category": "театр",
        "latitude": 55.7663217530867,
        "longitude": 37.599580957008
    },
    {
        "id": 16848,
        "name": "Библиотека №160",
        "category": "библиотека",
        "latitude": 55.581683071921,
        "longitude": 37.6497665709411
    },
    {
        "id": 37393,
        "name": "Библиотека №38",
        "category": "библиотека",
        "latitude": 55.858013,
        "longitude": 37.560817
    },
    {
        "id": 26453,
        "name": "Библиотека №196",
        "category": "библиотека",
        "latitude": 55.64579986527,
        "longitude": 37.6033102797623
    },
    {
        "id": 61742,
        "name": "Библиотека №195 на бульваре Адмирала Ушакова",
        "category": "библиотека",
        "latitude": 55.546083,
        "longitude": 37.549184
    },
    {
        "id": 46561,
        "name": "Библиотека №195 на улице Адмирала Лазарева",
        "category": "библиотека",
        "latitude": 55.5381133783945,
        "longitude": 37.5081559153441
    },
    {
        "id": 42102,
        "name": "Московский международный Дом музыки",
        "category": "театр",
        "latitude": 55.7332974297407,
        "longitude": 37.6463824232783
    },
    {
        "id": 57376,
        "name": "Библиотека №194",
        "category": "библиотека",
        "latitude": 55.544054916784,
        "longitude": 37.5623993730162
    },
    {
        "id": 63033,
        "name": "Библиотека №193",
        "category": "библиотека",
        "latitude": 55.5674764431697,
        "longitude": 37.5668483472212
    },
    {
        "id": 87,
        "name": "Библиотека №36 Культурный центр Ф. А. Искандера",
        "category": "библиотека",
        "latitude": 55.7857599190255,
        "longitude": 37.5781698515202
    },
    {
        "id": 41300,
        "name": "Библиотека №192",
        "category": "библиотека",
        "latitude": 55.578477,
        "longitude": 37.574031
    },
    {
        "id": 46110,
        "name": "Библиотека №34 имени А.А. Вознесенского",
        "category": "библиотека",
        "latitude": 55.794178,
        "longitude": 37.576456
    },
    {
        "id": 45262,
        "name": "Библиотека №191",
        "category": "библиотека",
        "latitude": 55.6513861328845,
        "longitude": 37.5593221865081
    },
    {
        "id": 4653,
        "name": "Московский театр «У Никитских ворот»",
        "category": "театр",
        "latitude": 55.7569382501347,
        "longitude": 37.5994204576719
    },
    {
        "id": 43134,
        "name": "Библиотека №37 на Дубнинской улице",
        "category": "библиотека",
        "latitude": 55.8693193454117,
        "longitude": 37.5625033091924
    },
    {
        "id": 75099,
        "name": "Библиотека №32 на улице Степана Супруна",
        "category": "библиотека",
        "latitude": 55.797468,
        "longitude": 37.545536
    },
    {
        "id": 90578,
        "name": "Библиотека №188",
        "category": "библиотека",
        "latitude": 55.657321,
        "longitude": 37.518282
    },
    {
        "id": 11297,
        "name": "Библиотека №187",
        "category": "библиотека",
        "latitude": 55.6386724922558,
        "longitude": 37.5110223485473
    },
    {
        "id": 56579,
        "name": "Библиотека №32 на улице 8 Марта",
        "category": "библиотека",
        "latitude": 55.804691,
        "longitude": 37.550579
    },
    {
        "id": 21743,
        "name": "Библиотека №186 имени С.А. Есенина",
        "category": "библиотека",
        "latitude": 55.680554990921,
        "longitude": 37.5722730882902
    },
    {
        "id": 83519,
        "name": "Театр Романа Виктюка",
        "category": "театр",
        "latitude": 55.7912379998417,
        "longitude": 37.6871767962949
    },
    {
        "id": 96588,
        "name": "Библиотека №30 на Коровинском шоссе",
        "category": "библиотека",
        "latitude": 55.880919,
        "longitude": 37.521578
    },
    {
        "id": 12056,
        "name": "Библиотека №185",
        "category": "библиотека",
        "latitude": 55.6747676283206,
        "longitude": 37.5929974576716
    },
    {
        "id": 6765,
        "name": "Библиотека №184",
        "category": "библиотека",
        "latitude": 55.6329850346369,
        "longitude": 37.4795958306884
    },
    {
        "id": 47475,
        "name": "Библиотека №30 на улице Софьи Ковалевской",
        "category": "библиотека",
        "latitude": 55.8824606642242,
        "longitude": 37.5331878220892
    },
    {
        "id": 7121,
        "name": "Библиотека №182 на улице Дмитрия Ульянова",
        "category": "библиотека",
        "latitude": 55.6817801852305,
        "longitude": 37.5924607202377
    },
    {
        "id": 21775,
        "name": "Московский театр оперетты",
        "category": "театр",
        "latitude": 55.7602020989547,
        "longitude": 37.616173618385
    },
    {
        "id": 51496,
        "name": "Библиотека №182 на улице Новочерёмушкинская",
        "category": "библиотека",
        "latitude": 55.6904823623915,
        "longitude": 37.586111093254
    },
    {
        "id": 63196,
        "name": "Библиотека №181",
        "category": "библиотека",
        "latitude": 55.662547,
        "longitude": 37.585781
    },
    {
        "id": 76169,
        "name": "Библиотека №180 имени Н.Ф. Федорова",
        "category": "библиотека",
        "latitude": 55.6489077932542,
        "longitude": 37.5290284504
    },
    {
        "id": 36918,
        "name": "Библиотека №179 на улице Ульяновой Марии",
        "category": "библиотека",
        "latitude": 55.6780723115829,
        "longitude": 37.5253335337293
    },
    {
        "id": 39738,
        "name": "Московский театр «Ленком Марка Захарова»",
        "category": "театр",
        "latitude": 55.767858,
        "longitude": 37.606909
    },
    {
        "id": 65403,
        "name": "Библиотека №29 на Дмитровском шоссе",
        "category": "библиотека",
        "latitude": 55.845572,
        "longitude": 37.569351
    },
    {
        "id": 91920,
        "name": "Библиотека №29 на Дмитровском шоссе",
        "category": "библиотека",
        "latitude": 55.833587,
        "longitude": 37.571686
    },
    {
        "id": 35852,
        "name": "Библиотека №179 на Вавилова",
        "category": "библиотека",
        "latitude": 55.6767823743607,
        "longitude": 37.5408325079344
    },
    {
        "id": 90244,
        "name": "Библиотека №175",
        "category": "библиотека",
        "latitude": 55.6765231296837,
        "longitude": 37.6000991005247
    },
    {
        "id": 40741,
        "name": "Библиотека №174",
        "category": "библиотека",
        "latitude": 55.6700761118107,
        "longitude": 37.5361041779078
    },
    {
        "id": 46139,
        "name": "Библиотека №29 на Дмитровском шоссе",
        "category": "библиотека",
        "latitude": 55.831403,
        "longitude": 37.569459
    },
    {
        "id": 62783,
        "name": "Библиотека №173",
        "category": "библиотека",
        "latitude": 55.6276761752089,
        "longitude": 37.4888876269834
    },
    {
        "id": 52623,
        "name": "Библиотека №27",
        "category": "библиотека",
        "latitude": 55.86203,
        "longitude": 37.501339
    },
    {
        "id": 91743,
        "name": "Библиотека №172 на улице Новаторов",
        "category": "библиотека",
        "latitude": 55.6676143197274,
        "longitude": 37.5231396269835
    },
    {
        "id": 17342,
        "name": "Библиотека №172 на улице Новаторов",
        "category": "библиотека",
        "latitude": 55.6672910882359,
        "longitude": 37.523093364418
    },
    {
        "id": 95194,
        "name": "Библиотека №26",
        "category": "библиотека",
        "latitude": 55.874819,
        "longitude": 37.493978
    },
    {
        "id": 61297,
        "name": "Библиотека №171 на улица Вильнюсская",
        "category": "библиотека",
        "latitude": 55.5969675245083,
        "longitude": 37.5183386858441
    },
    {
        "id": 83135,
        "name": "Библиотека №25 имени Всеволода Иванова",
        "category": "библиотека",
        "latitude": 55.803752,
        "longitude": 37.497782
    },
    {
        "id": 74124,
        "name": "Библиотека №170",
        "category": "библиотека",
        "latitude": 55.6028557801898,
        "longitude": 37.5412124318766
    },
    {
        "id": 31790,
        "name": "Библиотека №169 «Проспект»",
        "category": "библиотека",
        "latitude": 55.645814124407,
        "longitude": 37.4768717962949
    },
    {
        "id": 17191,
        "name": "Библиотека №24 имени Назыма Хикмета",
        "category": "библиотека",
        "latitude": 55.792916,
        "longitude": 37.512983
    },
    {
        "id": 78173,
        "name": "Театр Эстрады",
        "category": "театр",
        "latitude": 55.744735324636,
        "longitude": 37.6115069153442
    },
    {
        "id": 20441,
        "name": "Библиотека №168",
        "category": "библиотека",
        "latitude": 55.649632,
        "longitude": 37.576834
    },
    {
        "id": 84749,
        "name": "Московский академический театр им. Маяковского",
        "category": "театр",
        "latitude": 55.756798224243,
        "longitude": 37.6014919325384
    },
    {
        "id": 12646,
        "name": "Детский театр эстрады",
        "category": "театр",
        "latitude": 55.7726513805252,
        "longitude": 37.6781968981471
    },
    {
        "id": 44743,
        "name": "Московский камерный оркестр «Музыка вива»",
        "category": "концертная организация",
        "latitude": 55.766577,
        "longitude": 37.677643
    },
    {
        "id": 24370,
        "name": "Центральная городская деловая библиотека",
        "category": "библиотека",
        "latitude": 55.82252,
        "longitude": 37.661113
    },
    {
        "id": 33151,
        "name": "Театриум на Серпуховке",
        "category": "театр",
        "latitude": 55.7195687041034,
        "longitude": 37.6266825509255
    },
    {
        "id": 41635,
        "name": "Библиотека №69 на улице Корнейчука",
        "category": "библиотека",
        "latitude": 55.89763,
        "longitude": 37.628811
    },
    {
        "id": 56944,
        "name": "Библиотека №223 на Боровском шоссе",
        "category": "библиотека",
        "latitude": 55.6370228752851,
        "longitude": 37.3489354670353
    },
    {
        "id": 66748,
        "name": "Библиотека №223 на улице Лукинская",
        "category": "библиотека",
        "latitude": 55.642692,
        "longitude": 37.336921
    },
    {
        "id": 94979,
        "name": "Библиотека №68 на улице Челюскинской",
        "category": "библиотека",
        "latitude": 55.87878,
        "longitude": 37.700752
    },
    {
        "id": 23326,
        "name": "Московский драматический театр им. Ермоловой",
        "category": "театр",
        "latitude": 55.7576974024592,
        "longitude": 37.6122263386226
    },
    {
        "id": 23045,
        "name": "Библиотека №223 на Боровском шоссе",
        "category": "библиотека",
        "latitude": 55.640909,
        "longitude": 37.36157
    },
    {
        "id": 59608,
        "name": "Библиотека №222 на улице Богданова",
        "category": "библиотека",
        "latitude": 55.657469,
        "longitude": 37.407744
    },
    {
        "id": 44986,
        "name": "Библиотека №64 на Путевом проезде",
        "category": "библиотека",
        "latitude": 55.877445,
        "longitude": 37.572028
    },
    {
        "id": 55266,
        "name": "Театр «АпАРТе». Основная сцена",
        "category": "театр",
        "latitude": 55.7441139478578,
        "longitude": 37.6614749067457
    },
    {
        "id": 27365,
        "name": "Библиотека №222 на улице Богданова",
        "category": "библиотека",
        "latitude": 55.651247,
        "longitude": 37.396506
    },
    {
        "id": 42965,
        "name": "Библиотека №62 имени Пабло Неруды",
        "category": "библиотека",
        "latitude": 55.823803,
        "longitude": 37.646157
    },
    {
        "id": 29036,
        "name": "Библиотека №61 на улице Коминтерна",
        "category": "библиотека",
        "latitude": 55.861464,
        "longitude": 37.676107
    },
    {
        "id": 8957,
        "name": "Библиотека №61 на Верхоянской улице",
        "category": "библиотека",
        "latitude": 55.858286,
        "longitude": 37.670737
    },
    {
        "id": 92753,
        "name": "Библиотека №60 имени О.Э. Мандельштама",
        "category": "библиотека",
        "latitude": 55.817835,
        "longitude": 37.635503
    },
    {
        "id": 56611,
        "name": "Библиотека №59 на Ярославском шоссе",
        "category": "библиотека",
        "latitude": 55.852238,
        "longitude": 37.682143
    },
    {
        "id": 2886,
        "name": "Библиотека №220",
        "category": "библиотека",
        "latitude": 55.6834511082947,
        "longitude": 37.453651639217
    },
    {
        "id": 71351,
        "name": "Библиотека №59 на Ярославском шоссе",
        "category": "библиотека",
        "latitude": 55.873435,
        "longitude": 37.713528
    },
    {
        "id": 25102,
        "name": "Библиотека №218",
        "category": "библиотека",
        "latitude": 55.7067944731042,
        "longitude": 37.4698441077953
    },
    {
        "id": 57981,
        "name": "Библиотека №58 в Анадырском проезде",
        "category": "библиотека",
        "latitude": 55.870218,
        "longitude": 37.691288
    },
    {
        "id": 80584,
        "name": "Библиотека №58 на Тайнинской улице",
        "category": "библиотека",
        "latitude": 55.880586,
        "longitude": 37.686428
    },
    {
        "id": 84910,
        "name": "Библиотека №54 на улице Менжинского",
        "category": "библиотека",
        "latitude": 55.869476,
        "longitude": 37.67113
    },
    {
        "id": 23193,
        "name": "Библиотека №216 на Мичуринском проспекте",
        "category": "библиотека",
        "latitude": 55.6939181195271,
        "longitude": 37.4906745595243
    },
    {
        "id": 2397,
        "name": "Библиотека №57 на Алтуфьевском шоссе",
        "category": "библиотека",
        "latitude": 55.89609,
        "longitude": 37.585655
    },
    {
        "id": 90310,
        "name": "Библиотека №215 на улица Удальцова",
        "category": "библиотека",
        "latitude": 55.6810116080644,
        "longitude": 37.494684487102
    },
    {
        "id": 91887,
        "name": "Библиотека №57 на Алтуфьевском шоссе",
        "category": "библиотека",
        "latitude": 55.904679,
        "longitude": 37.585886
    },
    {
        "id": 80059,
        "name": "Сад культуры и отдыха им. Н. Э. Баумана",
        "category": "парк культуры и отдыха",
        "latitude": 55.7659074374612,
        "longitude": 37.6611335608513
    },
    {
        "id": 36188,
        "name": "Библиотека №215 на улице Удальцова",
        "category": "библиотека",
        "latitude": 55.6729228737049,
        "longitude": 37.5176938306884
    },
    {
        "id": 92606,
        "name": "Библиотека №56 на улице Римского-Корсакова",
        "category": "библиотека",
        "latitude": 55.873922,
        "longitude": 37.606734
    },
    {
        "id": 50121,
        "name": "Библиотека №56 на Алтуфьевском шоссе",
        "category": "библиотека",
        "latitude": 55.867626,
        "longitude": 37.588151
    },
    {
        "id": 11195,
        "name": "Парк имени М. Горького",
        "category": "парк культуры и отдыха",
        "latitude": 55.7315,
        "longitude": 37.603377
    },
    {
        "id": 76998,
        "name": "Библиотека №55 на проспекте Мира",
        "category": "библиотека",
        "latitude": 55.837348,
        "longitude": 37.661692
    },
    {
        "id": 14333,
        "name": "Библиотека №55 в Будайском проезде",
        "category": "библиотека",
        "latitude": 55.836312,
        "longitude": 37.666549
    },
    {
        "id": 39713,
        "name": "Нескучный сад",
        "category": "парк культуры и отдыха",
        "latitude": 55.718903,
        "longitude": 37.588069
    },
    {
        "id": 95678,
        "name": "Библиотека №54 на улице Широкая",
        "category": "библиотека",
        "latitude": 55.888209,
        "longitude": 37.660969
    },
    {
        "id": 65081,
        "name": "Парк искусств Музеон",
        "category": "парк культуры и отдыха",
        "latitude": 55.735282,
        "longitude": 37.607709
    },
    {
        "id": 55709,
        "name": "Библиотека №53 в Тенистом проезде",
        "category": "библиотека",
        "latitude": 55.8588257436343,
        "longitude": 37.6352514834667
    },
    {
        "id": 30486,
        "name": "Библиотека №52 на улице Конёнкова",
        "category": "библиотека",
        "latitude": 55.894742,
        "longitude": 37.610862
    },
    {
        "id": 38529,
        "name": "Природный заказник «Воробьевы горы»",
        "category": "парк культуры и отдыха",
        "latitude": 55.709688,
        "longitude": 37.555283
    },
    {
        "id": 87011,
        "name": "Библиотека №60 на улице Гончарова",
        "category": "библиотека",
        "latitude": 55.815858,
        "longitude": 37.590075
    },
    {
        "id": 73085,
        "name": "Библиотека №51 на улице Яблочкова",
        "category": "библиотека",
        "latitude": 55.828622,
        "longitude": 37.57793
    },
    {
        "id": 87578,
        "name": "Библиотека №50 на Октябрьской улице",
        "category": "библиотека",
        "latitude": 55.79856,
        "longitude": 37.6108
    },
    {
        "id": 52150,
        "name": "Московский зоопарк",
        "category": "музей",
        "latitude": 55.76119,
        "longitude": 37.578465
    },
    {
        "id": 45260,
        "name": "Библиотека №48 на улице Кибальчича",
        "category": "библиотека",
        "latitude": 55.815598,
        "longitude": 37.64705
    },
    {
        "id": 97252,
        "name": "Библиотека №48 на Новоалексеевской улице",
        "category": "библиотека",
        "latitude": 55.806798,
        "longitude": 37.638961
    },
    {
        "id": 43221,
        "name": "Библиотека №212 имени Т.Г. Шевченко",
        "category": "библиотека",
        "latitude": 55.737557,
        "longitude": 37.516368
    },
    {
        "id": 94935,
        "name": "Библиотека №209 имени А.Н.Толстого",
        "category": "библиотека",
        "latitude": 55.744553233833,
        "longitude": 37.5454332969588
    },
    {
        "id": 64180,
        "name": "Библиотека №202",
        "category": "библиотека",
        "latitude": 55.734309,
        "longitude": 37.469584
    },
    {
        "id": 24030,
        "name": "Академия джаза на Садовнической улице",
        "category": "образовательное учреждение",
        "latitude": 55.7443081820138,
        "longitude": 37.637374635582
    },
    {
        "id": 24836,
        "name": "Библиотека №200 «Истоки» на улице Ивано Франко",
        "category": "библиотека",
        "latitude": 55.7286060352122,
        "longitude": 37.4233643291518
    },
    {
        "id": 97146,
        "name": "Библиотека №200 «Истоки» на улице Боженко",
        "category": "библиотека",
        "latitude": 55.732835530241,
        "longitude": 37.4077685829252
    },
    {
        "id": 32194,
        "name": "Библиотека №199 имени Э. Г. Багрицкого",
        "category": "библиотека",
        "latitude": 55.7192512108671,
        "longitude": 37.4378070085983
    },
    {
        "id": 94107,
        "name": "Библиотека №198 имени Б. Л. Пастернака",
        "category": "библиотека",
        "latitude": 55.7095046533294,
        "longitude": 37.3966159578413
    },
    {
        "id": 5328,
        "name": "Парк культуры и отдыха «Красная Пресня»",
        "category": "парк культуры и отдыха",
        "latitude": 55.753787,
        "longitude": 37.551699
    },
    {
        "id": 44766,
        "name": "Центральная детская библиотека №226",
        "category": "библиотека",
        "latitude": 55.8520117728889,
        "longitude": 37.4431936147495
    },
    {
        "id": 58957,
        "name": "Центральная библиотека №224 имени Ф.В.Гладкова",
        "category": "библиотека",
        "latitude": 55.849848,
        "longitude": 37.436158
    },
    {
        "id": 69783,
        "name": "Библиотека №98 на Зеленом проспекте",
        "category": "библиотека",
        "latitude": 55.7511071783259,
        "longitude": 37.8235968981475
    },
    {
        "id": 27484,
        "name": "Музей-усадьба «Кусково»",
        "category": "музей",
        "latitude": 55.7354486487546,
        "longitude": 37.8078153789586
    },
    {
        "id": 84981,
        "name": "Библиотека №96",
        "category": "библиотека",
        "latitude": 55.749892,
        "longitude": 37.815642
    },
    {
        "id": 61773,
        "name": "Библиотека №95",
        "category": "библиотека",
        "latitude": 55.747049,
        "longitude": 37.80002
    },
    {
        "id": 84349,
        "name": "Лианозовский парк",
        "category": "парк культуры и отдыха",
        "latitude": 55.9006963133659,
        "longitude": 37.5710396441793
    },
    {
        "id": 34595,
        "name": "Библиотека №97 на Новокосинской улице",
        "category": "библиотека",
        "latitude": 55.7378247612696,
        "longitude": 37.8536561607129
    },
    {
        "id": 44157,
        "name": "Библиотека №97 на Новокосинской улице",
        "category": "библиотека",
        "latitude": 55.741947,
        "longitude": 37.869941
    },
    {
        "id": 7687,
        "name": "Библиотека №248 на улице Твардовского",
        "category": "библиотека",
        "latitude": 55.7962936042199,
        "longitude": 37.403322804893
    },
    {
        "id": 67035,
        "name": "Библиотека №248 на улице Кулакова",
        "category": "библиотека",
        "latitude": 55.8063657034297,
        "longitude": 37.3961163141553
    },
    {
        "id": 84628,
        "name": "Библиотека №94",
        "category": "библиотека",
        "latitude": 55.7431053473697,
        "longitude": 37.7549821865079
    },
    {
        "id": 24004,
        "name": "Библиотека №247 на Пятницком шоссе",
        "category": "библиотека",
        "latitude": 55.843222,
        "longitude": 37.386903
    },
    {
        "id": 98550,
        "name": "Библиотека №93 имени А.А.Блока",
        "category": "библиотека",
        "latitude": 55.757344,
        "longitude": 37.839088
    },
    {
        "id": 8512,
        "name": "Библиотека №246 на улице Маршала Конева",
        "category": "библиотека",
        "latitude": 55.7954922420825,
        "longitude": 37.4844074232786
    },
    {
        "id": 51121,
        "name": "Краснопресненская детская художественная школа",
        "category": "образовательное учреждение",
        "latitude": 55.768623,
        "longitude": 37.585242
    },
    {
        "id": 27019,
        "name": "Библиотека №245 на улице Берзарина",
        "category": "библиотека",
        "latitude": 55.788323,
        "longitude": 37.493192
    },
    {
        "id": 94590,
        "name": "Парк «Гончаровский»",
        "category": "парк культуры и отдыха",
        "latitude": 55.813818,
        "longitude": 37.588494
    },
    {
        "id": 76059,
        "name": "Библиотека №243",
        "category": "библиотека",
        "latitude": 55.807233,
        "longitude": 37.462011
    },
    {
        "id": 97718,
        "name": "Библиотека №89",
        "category": "библиотека",
        "latitude": 55.817194,
        "longitude": 37.867291
    },
    {
        "id": 82324,
        "name": "Библиотека №243 на улице Академика Бочвара",
        "category": "библиотека",
        "latitude": 55.8070955778297,
        "longitude": 37.4628367546306
    },
    {
        "id": 47552,
        "name": "Парк «Этнографическая деревня Бибирево»",
        "category": "парк культуры и отдыха",
        "latitude": 55.8953442011474,
        "longitude": 37.6231609795145
    },
    {
        "id": 72099,
        "name": "Культурный центр «Акулово» - Библиотека",
        "category": "библиотека",
        "latitude": 56.007936,
        "longitude": 37.795484
    },
    {
        "id": 53286,
        "name": "Библиотека №87 на 9-й улице Соколиной Горы",
        "category": "библиотека",
        "latitude": 55.773034,
        "longitude": 37.735967
    },
    {
        "id": 57677,
        "name": "Библиотека №241 на улице Маршала Тухачевского",
        "category": "библиотека",
        "latitude": 55.78445,
        "longitude": 37.474363
    },
    {
        "id": 72988,
        "name": "Библиотека № 87 на 5-й улице Соколиной Горы",
        "category": "библиотека",
        "latitude": 55.764059,
        "longitude": 37.737326
    },
    {
        "id": 17382,
        "name": "Библиотека №240 на улице Паршина",
        "category": "библиотека",
        "latitude": 55.788793,
        "longitude": 37.455534
    },
    {
        "id": 71997,
        "name": "Библиотека №86 в Измайловском проезде",
        "category": "библиотека",
        "latitude": 55.7980875196995,
        "longitude": 37.7697565891972
    },
    {
        "id": 37392,
        "name": "Библиотека №239 на Родионовской улице",
        "category": "библиотека",
        "latitude": 55.893198,
        "longitude": 37.394431
    },
    {
        "id": 85114,
        "name": "Библиотека №86 в Измайловском проезде",
        "category": "библиотека",
        "latitude": 55.791349580918,
        "longitude": 37.7700005423279
    },
    {
        "id": 14350,
        "name": "Усадьба «Алтуфьево»",
        "category": "парк культуры и отдыха",
        "latitude": 55.908237,
        "longitude": 37.581406
    },
    {
        "id": 76619,
        "name": "Библиотека №237 на ул.Генерала Белобородова",
        "category": "библиотека",
        "latitude": 55.829411,
        "longitude": 37.353468
    },
    {
        "id": 47591,
        "name": "Библиотека №85 на 3-й Парковой улице",
        "category": "библиотека",
        "latitude": 55.796842,
        "longitude": 37.78172
    },
    {
        "id": 40603,
        "name": "Парк «Дубки»",
        "category": "парк культуры и отдыха",
        "latitude": 55.820582,
        "longitude": 37.566377
    },
    {
        "id": 17805,
        "name": "Библиотека №85 на 3-й Парковой улице",
        "category": "библиотека",
        "latitude": 55.7959870659,
        "longitude": 37.7831078981474
    },
    {
        "id": 3610,
        "name": "Библиотека №84",
        "category": "библиотека",
        "latitude": 55.781772,
        "longitude": 37.73898
    },
    {
        "id": 87517,
        "name": "Парк по Ангарской улице",
        "category": "парк культуры и отдыха",
        "latitude": 55.878385,
        "longitude": 37.529518
    },
    {
        "id": 69763,
        "name": "Библиотека №83 на улице Константина Федина",
        "category": "библиотека",
        "latitude": 55.806246,
        "longitude": 37.791448
    },
    {
        "id": 70226,
        "name": "Библиотека №83 на 7-й Парковой улице",
        "category": "библиотека",
        "latitude": 55.802224,
        "longitude": 37.793337
    },
    {
        "id": 6756,
        "name": "Библиотека №82 на Измайловском проспекте",
        "category": "библиотека",
        "latitude": 55.7891468714609,
        "longitude": 37.8116905509261
    },
    {
        "id": 89299,
        "name": "Библиотека №82 на 4-й Парковой улице",
        "category": "библиотека",
        "latitude": 55.790965,
        "longitude": 37.786249
    },
    {
        "id": 90660,
        "name": "Библиотека №82 на Измайловском проспекте",
        "category": "библиотека",
        "latitude": 55.7889684730767,
        "longitude": 37.8016946355819
    },
    {
        "id": 11251,
        "name": "Библиотека №81 на Сиреневом бульваре",
        "category": "библиотека",
        "latitude": 55.8036843608929,
        "longitude": 37.8281753558195
    },
    {
        "id": 67702,
        "name": "Библиотека №80",
        "category": "библиотека",
        "latitude": 55.7792591396672,
        "longitude": 37.8373967374342
    },
    {
        "id": 54644,
        "name": "Территория «Коломенское»",
        "category": "музей",
        "latitude": 55.6693813817452,
        "longitude": 37.6719365489649
    },
    {
        "id": 43972,
        "name": "Библиотека №234 на ул.Габричевского",
        "category": "библиотека",
        "latitude": 55.8160839800786,
        "longitude": 37.4592263558193
    },
    {
        "id": 92607,
        "name": "Библиотека № 233 в 3-м Митинском переулке",
        "category": "библиотека",
        "latitude": 55.848529946083,
        "longitude": 37.3534293177904
    },
    {
        "id": 85440,
        "name": "Библиотека №232 на 2-м Тушинском проезде",
        "category": "библиотека",
        "latitude": 55.835174,
        "longitude": 37.418973
    },
    {
        "id": 54856,
        "name": "Библиотека №232 на 1-ом Тушинском проезде",
        "category": "библиотека",
        "latitude": 55.8333629235243,
        "longitude": 37.4220354060818
    },
    {
        "id": 54641,
        "name": "Библиотека №231 имени Н. Островского",
        "category": "библиотека",
        "latitude": 55.8465810758642,
        "longitude": 37.4530917116391
    },
    {
        "id": 9361,
        "name": "Библиотека №230 на Парусном проезде",
        "category": "библиотека",
        "latitude": 55.84631,
        "longitude": 37.446848
    },
    {
        "id": 60928,
        "name": "Библиотека №77 на 11-й Парковой улице",
        "category": "библиотека",
        "latitude": 55.7946439277203,
        "longitude": 37.8052180085982
    },
    {
        "id": 93528,
        "name": "Библиотека №227 на ул.Героев Панфиловцев",
        "category": "библиотека",
        "latitude": 55.858945990575,
        "longitude": 37.4308307142941
    },
    {
        "id": 23685,
        "name": "Библиотека № 225 на ул.Мневники",
        "category": "библиотека",
        "latitude": 55.7735779729525,
        "longitude": 37.4927118280331
    },
    {
        "id": 61519,
        "name": "Библиотека №99 на улице Короленко",
        "category": "библиотека",
        "latitude": 55.797382,
        "longitude": 37.68765
    },
    {
        "id": 15538,
        "name": "Усадьба «Люблино»",
        "category": "музей",
        "latitude": 55.6885541802109,
        "longitude": 37.743089008145
    },
    {
        "id": 93439,
        "name": "Центральная детская библиотека №251",
        "category": "библиотека",
        "latitude": 56.0004951989706,
        "longitude": 37.2088045509261
    },
    {
        "id": 75593,
        "name": "Центральная библиотека №249",
        "category": "библиотека",
        "latitude": 55.9884689160276,
        "longitude": 37.2303163386222
    },
    {
        "id": 1443,
        "name": "Библиотека №255",
        "category": "библиотека",
        "latitude": 55.9858579254871,
        "longitude": 37.1802304001379
    },
    {
        "id": 40850,
        "name": "Библиотека №74 на Краснобогатырской улице",
        "category": "библиотека",
        "latitude": 55.8066348500627,
        "longitude": 37.707167253967
    },
    {
        "id": 65640,
        "name": "Библиотека №254",
        "category": "библиотека",
        "latitude": 56.0030470633482,
        "longitude": 37.202983195105
    },
    {
        "id": 91591,
        "name": "Библиотека №253",
        "category": "библиотека",
        "latitude": 55.997554,
        "longitude": 37.190371
    },
    {
        "id": 80081,
        "name": "Библиотека №74 на Ивантеевской улице",
        "category": "библиотека",
        "latitude": 55.819724,
        "longitude": 37.715865
    },
    {
        "id": 81850,
        "name": "Библиотека №252",
        "category": "библиотека",
        "latitude": 55.987026,
        "longitude": 37.160154
    },
    {
        "id": 91123,
        "name": "Библиотека №72 на Хабаровской улице",
        "category": "библиотека",
        "latitude": 55.8226098561243,
        "longitude": 37.8267797374342
    },
    {
        "id": 43400,
        "name": "Библиотека №72 на Хабаровской улице",
        "category": "библиотека",
        "latitude": 55.817851,
        "longitude": 37.828062
    },
    {
        "id": 88033,
        "name": "Библиотека №72 на Уссурийской улице",
        "category": "библиотека",
        "latitude": 55.82383,
        "longitude": 37.819572
    },
    {
        "id": 42395,
        "name": "Библиотека №101",
        "category": "библиотека",
        "latitude": 55.722847,
        "longitude": 37.895457
    },
    {
        "id": 80448,
        "name": "Библиотека №100",
        "category": "библиотека",
        "latitude": 55.7680539575454,
        "longitude": 37.8321413055567
    },
    {
        "id": 41859,
        "name": "Библиотека №266 имени К.И. Чуковского",
        "category": "библиотека",
        "latitude": 55.6587413593533,
        "longitude": 37.3306499999999
    },
    {
        "id": 89635,
        "name": "Библиотека №265",
        "category": "библиотека",
        "latitude": 55.5758934905231,
        "longitude": 37.3522489742029
    },
    {
        "id": 33047,
        "name": "Библиотека №264",
        "category": "библиотека",
        "latitude": 55.5699840897704,
        "longitude": 37.4777656269834
    },
    {
        "id": 14425,
        "name": "Библиотека №262",
        "category": "библиотека",
        "latitude": 55.5503497122172,
        "longitude": 37.3272887374341
    },
    {
        "id": 37996,
        "name": "Библиотека №261",
        "category": "библиотека",
        "latitude": 55.582156,
        "longitude": 37.475923
    },
    {
        "id": 25719,
        "name": "Библиотека №260",
        "category": "библиотека",
        "latitude": 55.5224509566926,
        "longitude": 37.3717746441801
    },
    {
        "id": 65109,
        "name": "Библиотека №259",
        "category": "библиотека",
        "latitude": 55.6017373304884,
        "longitude": 37.3455829742048
    },
    {
        "id": 36310,
        "name": "Территория «Измайлово»",
        "category": "музей",
        "latitude": 55.7922137324686,
        "longitude": 37.7633132711634
    },
    {
        "id": 50903,
        "name": "Библиотека №49 на улице Корнейчука",
        "category": "библиотека",
        "latitude": 55.89121,
        "longitude": 37.623682
    },
    {
        "id": 79613,
        "name": "Библиотека №49 на Алтуфьевском шоссе",
        "category": "библиотека",
        "latitude": 55.9047738182672,
        "longitude": 37.5913414576719
    },
    {
        "id": 30175,
        "name": "Музей-усадьба «Останкино»",
        "category": "музей",
        "latitude": 55.824941,
        "longitude": 37.614689
    },
    {
        "id": 27813,
        "name": "Библиотека №39 «Познание»",
        "category": "библиотека",
        "latitude": 55.825103,
        "longitude": 37.571183
    },
    {
        "id": 51923,
        "name": "Парк культуры и отдыха «Фили»",
        "category": "парк культуры и отдыха",
        "latitude": 55.750429,
        "longitude": 37.490874
    },
    {
        "id": 496,
        "name": "Библиотека №258",
        "category": "библиотека",
        "latitude": 55.5317542620379,
        "longitude": 37.4472083709315
    },
    {
        "id": 37848,
        "name": "Библиотека №256",
        "category": "библиотека",
        "latitude": 55.6353730026422,
        "longitude": 37.2584549543525
    },
    {
        "id": 30976,
        "name": "Сад «Эрмитаж»",
        "category": "парк культуры и отдыха",
        "latitude": 55.770963,
        "longitude": 37.61002
    },
    {
        "id": 58868,
        "name": "Парк «Перовский»",
        "category": "парк культуры и отдыха",
        "latitude": 55.74099,
        "longitude": 37.774703
    },
    {
        "id": 74145,
        "name": "Парк у прудов «Радуга»",
        "category": "парк культуры и отдыха",
        "latitude": 55.730297,
        "longitude": 37.826269
    },
    {
        "id": 90901,
        "name": "Библиотека № 248 на улице Катукова",
        "category": "библиотека",
        "latitude": 55.8077878294973,
        "longitude": 37.409623678573
    },
    {
        "id": 96534,
        "name": "Библиотека №229 на Туристской улице",
        "category": "библиотека",
        "latitude": 55.857115355305,
        "longitude": 37.4197368859136
    },
    {
        "id": 7110,
        "name": "Зона отдыха «Терлецкая дубрава»",
        "category": "парк культуры и отдыха",
        "latitude": 55.766074,
        "longitude": 37.81186
    },
    {
        "id": 80574,
        "name": "Парк культуры и отдыха «Таганский»",
        "category": "парк культуры и отдыха",
        "latitude": 55.737939,
        "longitude": 37.667756
    },
    {
        "id": 8509,
        "name": "Музей-заповедник «Царицыно»",
        "category": "музей",
        "latitude": 55.6161091655053,
        "longitude": 37.6836146236946
    },
    {
        "id": 94285,
        "name": "Театр кукол «Жар-птица»",
        "category": "театр",
        "latitude": 55.7907308430982,
        "longitude": 37.683089685844
    },
    {
        "id": 44664,
        "name": "Драматический театр А. Джигарханяна",
        "category": "театр",
        "latitude": 55.6898173630002,
        "longitude": 37.5405061779098
    },
    {
        "id": 23400,
        "name": "Музейно-выставочный центр «Дача»",
        "category": "музей",
        "latitude": 55.749942,
        "longitude": 37.81345
    },
    {
        "id": 41742,
        "name": "Мемориальный дом-музей академика С.П. Королева",
        "category": "музей",
        "latitude": 55.823277,
        "longitude": 37.632026
    },
    {
        "id": 23584,
        "name": "Библиотека №263",
        "category": "библиотека",
        "latitude": 55.5025928202027,
        "longitude": 37.3325211071613
    },
    {
        "id": 54340,
        "name": "Мемориальный музей космонавтики",
        "category": "музей",
        "latitude": 55.82311,
        "longitude": 37.639815
    },
    {
        "id": 98096,
        "name": "Музей «Дом Бурганова»",
        "category": "музей",
        "latitude": 55.7465175903874,
        "longitude": 37.597197093254
    },
    {
        "id": 41858,
        "name": "Галерея Ильи Глазунова",
        "category": "музей",
        "latitude": 55.74639,
        "longitude": 37.606757
    },
    {
        "id": 9805,
        "name": "Парк «Усадьба Воронцово»",
        "category": "парк культуры и отдыха",
        "latitude": 55.6667630894906,
        "longitude": 37.5325903485484
    },
    {
        "id": 42093,
        "name": "Государственный музей истории ГУЛАГа",
        "category": "музей",
        "latitude": 55.7771133048186,
        "longitude": 37.6135037116392
    },
    {
        "id": 13018,
        "name": "Биологический музей им. К.А.Тимирязева",
        "category": "музей",
        "latitude": 55.764354,
        "longitude": 37.571534
    },
    {
        "id": 35283,
        "name": "Дом-музей Марины Цветаевой",
        "category": "музей",
        "latitude": 55.7542323280222,
        "longitude": 37.5900284490736
    },
    {
        "id": 8250,
        "name": "Галерея А. Шилова",
        "category": "музей",
        "latitude": 55.7492205377466,
        "longitude": 37.6078795337284
    },
    {
        "id": 30314,
        "name": "Музей Москвы",
        "category": "музей",
        "latitude": 55.7363826537196,
        "longitude": 37.5932271104505
    },
    {
        "id": 67707,
        "name": "Музей археологии Москвы",
        "category": "музей",
        "latitude": 55.756325,
        "longitude": 37.617177
    },
    {
        "id": 40977,
        "name": "Дарвиновский музей",
        "category": "музей",
        "latitude": 55.690623,
        "longitude": 37.561491
    },
    {
        "id": 89956,
        "name": "Государственный музей истории ГУЛАГа",
        "category": "музей",
        "latitude": 55.745131,
        "longitude": 37.612224
    },
    {
        "id": 89624,
        "name": "Музей истории «Лефортово»",
        "category": "музей",
        "latitude": 55.769413,
        "longitude": 37.711024
    },
    {
        "id": 46201,
        "name": "Усадьба «Влахернское-Кузьминки»",
        "category": "музей",
        "latitude": 55.6899568654336,
        "longitude": 37.7936635869186
    },
    {
        "id": 50100,
        "name": "Галерея ХХI века",
        "category": "выставочный зал",
        "latitude": 55.7180221114091,
        "longitude": 37.4612994490723
    },
    {
        "id": 22300,
        "name": "Галерея «На Каширке»",
        "category": "выставочный зал",
        "latitude": 55.66145,
        "longitude": 37.646992
    },
    {
        "id": 81926,
        "name": "Галерея «Измайлово»",
        "category": "выставочный зал",
        "latitude": 55.7909880480065,
        "longitude": 37.7701722159382
    },
    {
        "id": 51417,
        "name": "Галерея «Загорье»",
        "category": "выставочный зал",
        "latitude": 55.583963,
        "longitude": 37.685952
    },
    {
        "id": 65060,
        "name": "Галерея «Песчаная»",
        "category": "выставочный зал",
        "latitude": 55.793102,
        "longitude": 37.512965
    },
    {
        "id": 74510,
        "name": "Галерея «Пересветов переулок»",
        "category": "выставочный зал",
        "latitude": 55.7149605782281,
        "longitude": 37.6614896269833
    },
    {
        "id": 6722,
        "name": "Галерея «Печатники»",
        "category": "выставочный зал",
        "latitude": 55.6596257082564,
        "longitude": 37.7058494160073
    },
    {
        "id": 45018,
        "name": "Московская Усадьба Деда Мороза",
        "category": "музей",
        "latitude": 55.688304,
        "longitude": 37.809219
    },
    {
        "id": 30292,
        "name": "Мемориальный дом С.А. Есенина",
        "category": "музей",
        "latitude": 55.7267035369305,
        "longitude": 37.6307567115873
    },
    {
        "id": 90759,
        "name": "Галерея «Богородское»",
        "category": "выставочный зал",
        "latitude": 55.8138985032609,
        "longitude": 37.7342536944425
    },
    {
        "id": 86782,
        "name": "«Электромузей в Ростокино»",
        "category": "музей",
        "latitude": 55.8358654339536,
        "longitude": 37.6590011607128
    },
    {
        "id": 91129,
        "name": "Галерея «На Шаболовке»",
        "category": "выставочный зал",
        "latitude": 55.712847,
        "longitude": 37.61017
    },
    {
        "id": 10096,
        "name": "Музейно-выставочный центр «Солянка МСК»",
        "category": "выставочный зал",
        "latitude": 55.7547463356241,
        "longitude": 37.6384776269835
    },
    {
        "id": 28503,
        "name": "Дом русского зарубежья им. Солженицына",
        "category": "музей",
        "latitude": 55.7429642778838,
        "longitude": 37.651517982803
    },
    {
        "id": 12749,
        "name": "Московский государственный музей С.А.Есенина",
        "category": "музей",
        "latitude": 55.893294,
        "longitude": 37.529115
    },
    {
        "id": 77234,
        "name": "Музей-панорама «Бородинская битва»",
        "category": "выставочный зал",
        "latitude": 55.7388050272082,
        "longitude": 37.5232539766902
    },
    {
        "id": 49092,
        "name": "Дом книги «Новый»",
        "category": "прочие учреждения культуры",
        "latitude": 55.7511578916001,
        "longitude": 37.7184448392865
    },
    {
        "id": 89346,
        "name": "Дом книги на Профсоюзной",
        "category": "прочие учреждения культуры",
        "latitude": 55.6838576892838,
        "longitude": 37.5699480552247
    },
    {
        "id": 80478,
        "name": "Музей «Кутузовская изба»",
        "category": "музей",
        "latitude": 55.739721,
        "longitude": 37.523141
    },
    {
        "id": 77807,
        "name": "Мемориальный музей А.Н. Скрябина",
        "category": "музей",
        "latitude": 55.7507885608106,
        "longitude": 37.5900571779093
    },
    {
        "id": 63934,
        "name": "Дом книги в Беляево",
        "category": "прочие учреждения культуры",
        "latitude": 55.645588,
        "longitude": 37.517922
    },
    {
        "id": 75879,
        "name": "Музей «Садовое кольцо»",
        "category": "музей",
        "latitude": 55.775034,
        "longitude": 37.632628
    },
    {
        "id": 98419,
        "name": "«Московский государственный музей С.А.Есенина",
        "category": "музей",
        "latitude": 55.782127,
        "longitude": 37.609236
    },
    {
        "id": 87967,
        "name": "Дом книги в Очаково",
        "category": "прочие учреждения культуры",
        "latitude": 55.680742,
        "longitude": 37.453926
    },
    {
        "id": 26220,
        "name": "Музей Зеленограда",
        "category": "музей",
        "latitude": 55.986224,
        "longitude": 37.171774
    },
    {
        "id": 88432,
        "name": "Выставочный зал Музея Зеленограда",
        "category": "выставочный зал",
        "latitude": 55.986303,
        "longitude": 37.146757
    },
    {
        "id": 86047,
        "name": "Музей Героев Советского Союза и России",
        "category": "музей",
        "latitude": 55.681767,
        "longitude": 37.583823
    },
    {
        "id": 50305,
        "name": "Измайловский парк культуры и отдыха",
        "category": "парк культуры и отдыха",
        "latitude": 55.77815,
        "longitude": 37.75298
    },
    {
        "id": 95389,
        "name": "Музейно-выставочный центр «Тушино»",
        "category": "музей",
        "latitude": 55.848877,
        "longitude": 37.429016
    },
    {
        "id": 8015,
        "name": "Московский музей современного искусства",
        "category": "музей",
        "latitude": 55.7469373095197,
        "longitude": 37.6002877582661
    },
    {
        "id": 98824,
        "name": "Государственный музей Пушкина",
        "category": "музей",
        "latitude": 55.743591,
        "longitude": 37.597495
    },
    {
        "id": 69227,
        "name": "Парк «Сиреневый сад»",
        "category": "парк культуры и отдыха",
        "latitude": 55.804545,
        "longitude": 37.765947
    },
    {
        "id": 6545,
        "name": "Музей им. Н.А.Островского",
        "category": "музей",
        "latitude": 55.7641456070799,
        "longitude": 37.6071001620406
    },
    {
        "id": 50928,
        "name": "Театр Стаса Намина",
        "category": "театр",
        "latitude": 55.7218276098264,
        "longitude": 37.5910050661303
    },
    {
        "id": 58585,
        "name": "Музей К.Г.Паустовского",
        "category": "музей",
        "latitude": 55.693976,
        "longitude": 37.788715
    },
    {
        "id": 12543,
        "name": "Московский музей современного искусства",
        "category": "музей",
        "latitude": 55.7671888175618,
        "longitude": 37.6141311607127
    },
    {
        "id": 56039,
        "name": "Государственный музей обороны Москвы",
        "category": "музей",
        "latitude": 55.676485002807,
        "longitude": 37.467671789024
    },
    {
        "id": 24150,
        "name": "Государственный историко-этнографический театр",
        "category": "театр",
        "latitude": 55.863762,
        "longitude": 37.68102
    },
    {
        "id": 83467,
        "name": "Музей Моды",
        "category": "музей",
        "latitude": 55.753908,
        "longitude": 37.625642
    },
    {
        "id": 13041,
        "name": "Театр «Балет «Москва»",
        "category": "театр",
        "latitude": 55.7721729991931,
        "longitude": 37.6604318994732
    },
    {
        "id": 17794,
        "name": "Московский театр иллюзии",
        "category": "театр",
        "latitude": 55.724787027492,
        "longitude": 37.8262570760573
    },
    {
        "id": 94301,
        "name": "Московский детский Сказочный театр",
        "category": "театр",
        "latitude": 55.7410624193635,
        "longitude": 37.6643256527766
    },
    {
        "id": 81108,
        "name": "Московский драматический Театр на Перовской",
        "category": "театр",
        "latitude": 55.7453784083034,
        "longitude": 37.8124829239423
    },
    {
        "id": 68871,
        "name": "Театр под руководством Геннадия Чихачёва",
        "category": "театр",
        "latitude": 55.717178,
        "longitude": 37.783824
    },
    {
        "id": 82340,
        "name": "Бабушкинский парк",
        "category": "парк культуры и отдыха",
        "latitude": 55.8672422522532,
        "longitude": 37.6827574576709
    },
    {
        "id": 47345,
        "name": "Парк «У Джамгаровского пруда»",
        "category": "парк культуры и отдыха",
        "latitude": 55.888768,
        "longitude": 37.69589
    },
    {
        "id": 70391,
        "name": "Московский драматический театр «Модернъ»",
        "category": "театр",
        "latitude": 55.7766542818289,
        "longitude": 37.6824225337294
    },
    {
        "id": 66672,
        "name": "Сквер по Олонецкому проезду",
        "category": "парк культуры и отдыха",
        "latitude": 55.876394,
        "longitude": 37.656721
    },
    {
        "id": 42727,
        "name": "Театр на Покровке",
        "category": "театр",
        "latitude": 55.7634447299816,
        "longitude": 37.6550408723519
    },
    {
        "id": 17239,
        "name": "Ландшафтный парк «Митино»",
        "category": "парк культуры и отдыха",
        "latitude": 55.834842,
        "longitude": 37.368309
    },
    {
        "id": 38007,
        "name": "Библиотека №77 на 11-й Парковой улице",
        "category": "библиотека",
        "latitude": 55.793971,
        "longitude": 37.805203
    },
    {
        "id": 66666,
        "name": "Парк культуры и отдыха «Сокольники»",
        "category": "парк культуры и отдыха",
        "latitude": 55.792657,
        "longitude": 37.677738
    },
    {
        "id": 39078,
        "name": "Библиотека №28 на улице Алабяна",
        "category": "библиотека",
        "latitude": 55.799957,
        "longitude": 37.501735
    },
    {
        "id": 40191,
        "name": "Зона отдыха «Борисовские пруды»",
        "category": "парк культуры и отдыха",
        "latitude": 55.633348,
        "longitude": 37.708087
    },
    {
        "id": 92296,
        "name": "Парк «По Борисовским прудам»",
        "category": "парк культуры и отдыха",
        "latitude": 55.626826,
        "longitude": 37.701572
    },
    {
        "id": 3777,
        "name": "Библиотека №20 имени А.А.Дельвига",
        "category": "библиотека",
        "latitude": 55.7681289999685,
        "longitude": 37.6763516441802
    },
    {
        "id": 23458,
        "name": "Парк культуры и отдыха «Кузьминки»",
        "category": "парк культуры и отдыха",
        "latitude": 55.6949512543248,
        "longitude": 37.7701588373256
    },
    {
        "id": 25763,
        "name": "Парк имени Юрия Лужкова",
        "category": "парк культуры и отдыха",
        "latitude": 55.662316,
        "longitude": 37.653016
    },
    {
        "id": 47847,
        "name": "Парк Олимпийской деревни",
        "category": "парк культуры и отдыха",
        "latitude": 55.680027,
        "longitude": 37.47713
    },
    {
        "id": 44553,
        "name": "Центральная детская библиотека №152",
        "category": "библиотека",
        "latitude": 55.6091277766433,
        "longitude": 37.7272074209705
    },
    {
        "id": 7680,
        "name": "Москонцерт на Ленинградском проспекте",
        "category": "концертная организация",
        "latitude": 55.784597,
        "longitude": 37.570815
    },
    {
        "id": 36413,
        "name": "Парк 50-летия Октября",
        "category": "парк культуры и отдыха",
        "latitude": 55.6813301777915,
        "longitude": 37.5038811904905
    },
    {
        "id": 63887,
        "name": "Москонцерт на Пушечной",
        "category": "концертная организация",
        "latitude": 55.76057,
        "longitude": 37.622783
    },
    {
        "id": 30161,
        "name": "Центральная библиотека №190",
        "category": "библиотека",
        "latitude": 55.6308232984699,
        "longitude": 37.519242761901
    },
    {
        "id": 71038,
        "name": "Москонцерт, Концертный зал «Москонцерт Холл»",
        "category": "концертная организация",
        "latitude": 55.776077,
        "longitude": 37.648834
    },
    {
        "id": 87216,
        "name": "Парк «Северное Тушино»",
        "category": "парк культуры и отдыха",
        "latitude": 55.855704,
        "longitude": 37.45298
    },
    {
        "id": 43102,
        "name": "Музей истории ВМФ России",
        "category": "музей",
        "latitude": 55.852139,
        "longitude": 37.455965
    },
    {
        "id": 50511,
        "name": "Библиотека №217",
        "category": "библиотека",
        "latitude": 55.7219387071234,
        "longitude": 37.5140874332041
    },
    {
        "id": 11031,
        "name": "Театр «Практика»",
        "category": "театр",
        "latitude": 55.7656379025097,
        "longitude": 37.5947489742048
    },
    {
        "id": 25079,
        "name": "Государственная капелла Москвы",
        "category": "концертная организация",
        "latitude": 55.818776,
        "longitude": 37.519674
    },
    {
        "id": 66059,
        "name": "Библиотека №248 на улице Маршала Катукова",
        "category": "библиотека",
        "latitude": 55.8113006879202,
        "longitude": 37.4044047863689
    },
    {
        "id": 91354,
        "name": "Галерея А3",
        "category": "выставочный зал",
        "latitude": 55.749218,
        "longitude": 37.59452
    },
    {
        "id": 57620,
        "name": "Библиотека №216 на улице Лобачевского",
        "category": "библиотека",
        "latitude": 55.6847977604253,
        "longitude": 37.481696635582
    },
    {
        "id": 50741,
        "name": "Библиотека №201",
        "category": "библиотека",
        "latitude": 55.7843558927062,
        "longitude": 37.3572208048933
    },
    {
        "id": 29184,
        "name": "Библиотека №189 «Патриот»",
        "category": "библиотека",
        "latitude": 55.5005952247709,
        "longitude": 37.5923339914015
    },
    {
        "id": 77260,
        "name": "Библиотека №171 на улице Тарусская",
        "category": "библиотека",
        "latitude": 55.604463,
        "longitude": 37.530301
    },
    {
        "id": 70564,
        "name": "Московский Дом Фотографии",
        "category": "выставочный зал",
        "latitude": 55.7416615392041,
        "longitude": 37.598629796295
    },
    {
        "id": 21040,
        "name": "Московский музей современного искусства",
        "category": "музей",
        "latitude": 55.762622,
        "longitude": 37.611113
    },
    {
        "id": 69577,
        "name": "Библиотека №53 на улице Седова",
        "category": "библиотека",
        "latitude": 55.851136,
        "longitude": 37.643138
    },
    {
        "id": 69907,
        "name": "Галерея «Выхино»",
        "category": "выставочный зал",
        "latitude": 55.708227,
        "longitude": 37.819244
    },
    {
        "id": 81270,
        "name": "Галерея «Ходынка»",
        "category": "выставочный зал",
        "latitude": 55.7884973609157,
        "longitude": 37.4921905423275
    },
    {
        "id": 25445,
        "name": "Галерея «Нагорная»",
        "category": "выставочный зал",
        "latitude": 55.6763351894832,
        "longitude": 37.6004638809506
    },
    {
        "id": 44660,
        "name": "Галерея «Солнцево»",
        "category": "выставочный зал",
        "latitude": 55.651247,
        "longitude": 37.396506
    },
    {
        "id": 51273,
        "name": "Галерея «Беляево» на улице Академика Варги",
        "category": "выставочный зал",
        "latitude": 55.6294970416073,
        "longitude": 37.4780545803564
    },
    {
        "id": 39990,
        "name": "Академия джаза на улице Трёхгорный Вал",
        "category": "образовательное учреждение",
        "latitude": 55.7586494478963,
        "longitude": 37.5625648442493
    },
    {
        "id": 616,
        "name": "Московский Планетарий",
        "category": "музей",
        "latitude": 55.761411,
        "longitude": 37.583661
    },
    {
        "id": 27177,
        "name": "Московский театр «На досках»",
        "category": "театр",
        "latitude": 55.762637,
        "longitude": 37.587901
    },
    {
        "id": 34060,
        "name": "Театр Музыки и Поэзии пр Е. Камбуровой",
        "category": "театр",
        "latitude": 55.7270441365024,
        "longitude": 37.5614138134912
    },
    {
        "id": 86515,
        "name": "Воскресенская детская школа искусств",
        "category": "образовательное учреждение",
        "latitude": 55.529833,
        "longitude": 37.444105
    },
    {
        "id": 24837,
        "name": "Вороновская детская школа искусств",
        "category": "образовательное учреждение",
        "latitude": 55.310458007415,
        "longitude": 37.1807599705692
    },
    {
        "id": 22093,
        "name": "Детский музыкальный театр юного актера",
        "category": "театр",
        "latitude": 55.768177,
        "longitude": 37.606999
    },
    {
        "id": 3334,
        "name": "Киевская детская музыкальная школа",
        "category": "образовательное учреждение",
        "latitude": 55.433568,
        "longitude": 36.869905
    },
    {
        "id": 78931,
        "name": "Краснопахорская детская школа искусств",
        "category": "образовательное учреждение",
        "latitude": 55.431009,
        "longitude": 37.27376
    },
    {
        "id": 41443,
        "name": "Театр кошек Куклачева",
        "category": "театр",
        "latitude": 55.7438900260293,
        "longitude": 37.5467491779098
    },
    {
        "id": 84057,
        "name": "Центр вокального искусства Валентины Левко",
        "category": "образовательное учреждение",
        "latitude": 55.688086,
        "longitude": 37.548402
    },
    {
        "id": 33289,
        "name": "Джаз-оркестр под управлением Игоря Бутмана",
        "category": "концертная организация",
        "latitude": 55.743877,
        "longitude": 37.660934
    },
    {
        "id": 68187,
        "name": "Рязановская детская школа искусств «Дар»",
        "category": "образовательное учреждение",
        "latitude": 55.473306,
        "longitude": 37.541674
    },
    {
        "id": 89248,
        "name": "Хор солистов",
        "category": "концертная организация",
        "latitude": 55.77915,
        "longitude": 37.631927
    },
    {
        "id": 94856,
        "name": "Театр художественной публицистики",
        "category": "театр",
        "latitude": 55.7820642536937,
        "longitude": 37.6739316269835
    },
    {
        "id": 38404,
        "name": "Кокошкинская детская школа искусств",
        "category": "образовательное учреждение",
        "latitude": 55.5980255136282,
        "longitude": 37.1625082367703
    },
    {
        "id": 68365,
        "name": "Культурный центр «Акулово» музыкальная школа",
        "category": "образовательное учреждение",
        "latitude": 56.0054774236405,
        "longitude": 37.7948433091924
    },
    {
        "id": 58846,
        "name": "Хореографическое училище имени Л.М. Лавровского",
        "category": "образовательное учреждение",
        "latitude": 55.6828585461345,
        "longitude": 37.6289359999999
    },
    {
        "id": 90011,
        "name": "Дом книги на Фрунзенской",
        "category": "прочие учреждения культуры",
        "latitude": 55.726533,
        "longitude": 37.582197
    },
    {
        "id": 52767,
        "name": "Музей В. А. Тропинина",
        "category": "музей",
        "latitude": 55.7337457780704,
        "longitude": 37.6228057754628
    },
    {
        "id": 30972,
        "name": "Комплекс «Гостиный двор»",
        "category": "музей",
        "latitude": 55.7538012532771,
        "longitude": 37.6256945608517
    },
    {
        "id": 86531,
        "name": "Центральный выставочный зал «Манеж»",
        "category": "музей",
        "latitude": 55.753433,
        "longitude": 37.612299
    },
    {
        "id": 51925,
        "name": "Библиотека №19 имени Ф.М.Достоевского",
        "category": "библиотека",
        "latitude": 55.760276,
        "longitude": 37.646804
    },
    {
        "id": 91867,
        "name": "Галерея «ЗДЕСЬ на Таганке»",
        "category": "выставочный зал",
        "latitude": 55.7407253453281,
        "longitude": 37.6706864855065
    },
    {
        "id": 65379,
        "name": "Театр «Центр драматургии и режиссуры»",
        "category": "театр",
        "latitude": 55.7769848307755,
        "longitude": 37.5549209239424
    },
    {
        "id": 97080,
        "name": "Галерея «Беляево» на Профсоюзной улице",
        "category": "выставочный зал",
        "latitude": 55.644823,
        "longitude": 37.525941
    },
    {
        "id": 67994,
        "name": "Музей М. А. Булгакова на Большой Садовой улице",
        "category": "музей",
        "latitude": 55.7670984493652,
        "longitude": 37.5939418650814
    },
    {
        "id": 12886,
        "name": "Московский Театр Юного Зрителя, Малый зал",
        "category": "театр",
        "latitude": 55.766288,
        "longitude": 37.599319
    },
    {
        "id": 19137,
        "name": "Выставочный зал «Домик Чехова»",
        "category": "музей",
        "latitude": 55.7716808938773,
        "longitude": 37.604038279762
    },
    {
        "id": 8338,
        "name": "Театр детской книги «Волшебная лампа»",
        "category": "театр",
        "latitude": 55.7826083914201,
        "longitude": 37.5993778981475
    },
    {
        "id": 87821,
        "name": "Государственный музей Владимира Высоцкого",
        "category": "музей",
        "latitude": 55.7446082732757,
        "longitude": 37.6515467619013
    },
    {
        "id": 99661,
        "name": "Московский концертный зал «Зарядье»",
        "category": "концертная организация",
        "latitude": 55.7513043598743,
        "longitude": 37.6313694351288
    },
    {
        "id": 31922,
        "name": "Мемориальный музей А.Н. Скрябина",
        "category": "музей",
        "latitude": 55.772046,
        "longitude": 37.594881
    },
    {
        "id": 38877,
        "name": "Парк «Зарядье»",
        "category": "парк культуры и отдыха",
        "latitude": 55.7511757407505,
        "longitude": 37.6287545317677
    },
    {
        "id": 81267,
        "name": "Гоголь-центр",
        "category": "театр",
        "latitude": 55.7623846977824,
        "longitude": 37.6622158478845
    },
    {
        "id": 26217,
        "name": "Московский драматический театр «Бенефис»",
        "category": "театр",
        "latitude": 55.672747,
        "longitude": 37.555041
    },
    {
        "id": 45606,
        "name": "Электротеатр Станиславский",
        "category": "театр",
        "latitude": 55.7667302909554,
        "longitude": 37.6009020846554
    },
    {
        "id": 77288,
        "name": "Московский еврейский театр «Шалом»",
        "category": "театр",
        "latitude": 55.6607603823266,
        "longitude": 37.6201579828028
    },
    {
        "id": 86195,
        "name": "Ансамбль «Благовест»",
        "category": "концертная организация",
        "latitude": 55.759496,
        "longitude": 37.608868
    },
    {
        "id": 12867,
        "name": "Большой Московский государственный цирк",
        "category": "цирки",
        "latitude": 55.69449,
        "longitude": 37.54029
    },
    {
        "id": 80386,
        "name": "Дом-музей И.С. Тургенева на улице Остоженка",
        "category": "музей",
        "latitude": 55.7387432642748,
        "longitude": 37.5959495165326
    },
    {
        "id": 15481,
        "name": "Детский музыкальный театр имени Н. И. Сац",
        "category": "театр",
        "latitude": 55.69637,
        "longitude": 37.54438111
    },
    {
        "id": 73113,
        "name": "Музей «Самоцветы»",
        "category": "музей",
        "latitude": 55.7823513644169,
        "longitude": 37.4801326359637
    },
    {
        "id": 97989,
        "name": "Троицкий музей",
        "category": "музей",
        "latitude": 55.4917392133115,
        "longitude": 37.2992647513042
    },
    {
        "id": 8254,
        "name": "Музей архитектуры имени А.В. Щусева",
        "category": "музей",
        "latitude": 55.75245778,
        "longitude": 37.6072794
    },
    {
        "id": 68499,
        "name": "Московский областной театр юного зрителя",
        "category": "театр",
        "latitude": 55.61625178,
        "longitude": 37.67304495
    },
    {
        "id": 53624,
        "name": "Московская областная филармония",
        "category": "концертная организация",
        "latitude": 55.77445992,
        "longitude": 37.61643586
    },
    {
        "id": 3084,
        "name": "Московский областной театр кукол",
        "category": "театр",
        "latitude": 55.745296197436,
        "longitude": 37.6595827290555
    },
    {
        "id": 83071,
        "name": "Московский Губернский театр",
        "category": "театр",
        "latitude": 55.708126561815,
        "longitude": 37.767113754656
    },
    {
        "id": 56658,
        "name": "Государственный центр современного искусства",
        "category": "музей",
        "latitude": 55.764347748787,
        "longitude": 37.581371642896
    },
    {
        "id": 91760,
        "name": "Российская государственная библиотека",
        "category": "библиотека",
        "latitude": 55.751788808142,
        "longitude": 37.608763535172
    },
    {
        "id": 11476,
        "name": "Концертный зал имени П.И. Чайковского",
        "category": "концертная организация",
        "latitude": 55.768923107793,
        "longitude": 37.596282737873
    },
    {
        "id": 2261,
        "name": "Музей имени Андрея Рублёва",
        "category": "музей",
        "latitude": 55.7486456228729,
        "longitude": 37.6704745848712
    },
    {
        "id": 3965,
        "name": "Камерный зал Филармонии",
        "category": "концертная организация",
        "latitude": 55.768923107793,
        "longitude": 37.596282737873
    },
    {
        "id": 57408,
        "name": "Филармония-2",
        "category": "концертная организация",
        "latitude": 55.6774193626466,
        "longitude": 37.4686555954394
    },
    {
        "id": 82773,
        "name": "Концертный зал РАМ имени Гнесиных",
        "category": "концертная организация",
        "latitude": 55.756161936915,
        "longitude": 37.590777442299
    },
    {
        "id": 65190,
        "name": "Оркестрион",
        "category": "концертная организация",
        "latitude": 55.6726142669912,
        "longitude": 37.5497442312722
    },
    {
        "id": 94241,
        "name": "Гнесинский концертный зал на Поварской",
        "category": "концертная организация",
        "latitude": 55.756161936915,
        "longitude": 37.590777442299
    },
    {
        "id": 57323,
        "name": "Троицкая библиотека №2",
        "category": "библиотека",
        "latitude": 55.46891685,
        "longitude": 37.29626877
    },
    {
        "id": 11465,
        "name": "Политехнический музей на ВДНХ",
        "category": "музей",
        "latitude": 55.83435476,
        "longitude": 37.62113081
    },
    {
        "id": 15225,
        "name": "Открытые фонды Политехнического музея.",
        "category": "музей",
        "latitude": 55.7090481542956,
        "longitude": 37.7227092369145
    },
    {
        "id": 22372,
        "name": "Политехническая библиотека",
        "category": "библиотека",
        "latitude": 55.7095963379623,
        "longitude": 37.7231920182551
    },
    {
        "id": 83631,
        "name": "Политехнический музей",
        "category": "музей",
        "latitude": 55.757761152214,
        "longitude": 37.629564843941
    },
    {
        "id": 91349,
        "name": "Палеонтологический музей им. Ю.А. Орлова",
        "category": "музей",
        "latitude": 55.6242473271192,
        "longitude": 37.5139399439241
    },
    {
        "id": 96801,
        "name": "Геологический музей им. Вернадского",
        "category": "музей",
        "latitude": 55.755968029022,
        "longitude": 37.612627323956
    },
    {
        "id": 16770,
        "name": "Музей художественного академического театра",
        "category": "музей",
        "latitude": 55.760396598202,
        "longitude": 37.613477148182
    },